Country,Name,Latitude,Longitude,CountryCode,Continent,Category
Somaliland,Hargeisa,9.55,44.05,NULL,Africa,
South Georgia and South Sandwich Islands,King Edward Point,-54.283333,-36.5,GS,Antarctica,GS
French Southern and Antarctic Lands,Port-aux-Français,-49.35,70.216667,TF,Antarctica,TF
Palestine,Jerusalem,31.7666666666667,35.233333,PS,Asia,PS
Aland Islands,Mariehamn,60.116667,19.9,AX,Europe,AX
Nauru,Yaren,-0.5477,166.920867,NR,Australia,NR
Saint Martin,Marigot,18.0731,-63.0822,MF,North America,MF
Tokelau,Atafu,-9.166667,-171.833333,TK,Australia,TK
Western Sahara,El-Aaiún,27.153611,-13.203333,EH,Africa,EH
Afghanistan,Kabul,34.5166666666667,69.183333,AF,Asia,AF
Albania,Tirana,41.3166666666667,19.816667,AL,Europe,AL
Algeria,Algiers,36.75,3.05,DZ,Africa,DZ
American Samoa,Pago Pago,-14.2666666666667,-170.7,AS,Australia,AS
Andorra,Andorra la Vella,42.5,1.516667,AD,Europe,AD
Angola,Luanda,-8.83333333333333,13.216667,AO,Africa,AO
Anguilla,The Valley,18.2166666666667,-63.05,AI,North America,AI
Antigua and Barbuda,Saint John's,17.1166666666667,-61.85,AG,North America,AG
Argentina,Buenos Aires,-34.5833333333333,-58.666667,AR,South America,AR
Armenia,Yerevan,40.1666666666667,44.5,AM,Europe,AM
Aruba,Oranjestad,12.5166666666667,-70.033333,AW,North America,AW
Australia,Canberra,-35.2666666666667,149.133333,AU,Australia,AU
Austria,Vienna,48.2,16.366667,AT,Europe,AT
Azerbaijan,Baku,40.3833333333333,49.866667,AZ,Europe,AZ
Bahamas,Nassau,25.0833333333333,-77.35,BS,North America,BS
Bahrain,Manama,26.2333333333333,50.566667,BH,Asia,BH
Bangladesh,Dhaka,23.7166666666667,90.4,BD,Asia,BD
Barbados,Bridgetown,13.1,-59.616667,BB,North America,BB
Belarus,Minsk,53.9,27.566667,BY,Europe,BY
Belgium,Brussels,50.8333333333333,4.333333,BE,Europe,BE
Belize,Belmopan,17.25,-88.766667,BZ,Central America,BZ
Benin,Porto-Novo,6.48333333333333,2.616667,BJ,Africa,BJ
Bermuda,Hamilton,32.2833333333333,-64.783333,BM,North America,BM
Bhutan,Thimphu,27.4666666666667,89.633333,BT,Asia,BT
Bolivia,La Paz,-16.5,-68.15,BO,South America,BO
Bosnia and Herzegovina,Sarajevo,43.8666666666667,18.416667,BA,Europe,BA
Botswana,Gaborone,-24.6333333333333,25.9,BW,Africa,BW
Brazil,Brasilia,-15.7833333333333,-47.916667,BR,South America,BR
British Virgin Islands,Road Town,18.4166666666667,-64.616667,VG,North America,VG
Brunei Darussalam,Bandar Seri Begawan,4.88333333333333,114.933333,BN,Asia,BN
Bulgaria,Sofia,42.6833333333333,23.316667,BG,Europe,BG
Burkina Faso,Ouagadougou,12.3666666666667,-1.516667,BF,Africa,BF
Myanmar,Rangoon,16.8,96.15,MM,Asia,MM
Burundi,Bujumbura,-3.36666666666667,29.35,BI,Africa,BI
Cambodia,Phnom Penh,11.55,104.916667,KH,Asia,KH
Cameroon,Yaounde,3.86666666666667,11.516667,CM,Africa,CM
Canada,Ottawa,45.4166666666667,-75.7,CA,Central America,CA
Cape Verde,Praia,14.9166666666667,-23.516667,CV,Africa,CV
Cayman Islands,George Town,19.3,-81.383333,KY,North America,KY
Central African Republic,Bangui,4.36666666666667,18.583333,CF,Africa,CF
Chad,N'Djamena,12.1,15.033333,TD,Africa,TD
Chile,Santiago,-33.45,-70.666667,CL,South America,CL
China,Beijing,39.9166666666667,116.383333,CN,Asia,CN
Christmas Island,The Settlement,-10.4166666666667,105.716667,CX,Australia,CX
Cocos Islands,West Island,-12.1666666666667,96.833333,CC,Australia,CC
Colombia,Bogota,4.6,-74.083333,CO,South America,CO
Comoros,Moroni,-11.7,43.233333,KM,Africa,KM
Democratic Republic of the Congo,Kinshasa,-4.31666666666667,15.3,CD,Africa,CD
Republic of Congo,Brazzaville,-4.25,15.283333,CG,Africa,CG
Cook Islands,Avarua,-21.2,-159.766667,CK,Australia,CK
Costa Rica,San Jose,9.93333333333333,-84.083333,CR,Central America,CR
Cote d'Ivoire,Yamoussoukro,6.81666666666667,-5.266667,CI,Africa,CI
Croatia,Zagreb,45.8,16,HR,Europe,HR
Cuba,Havana,23.1166666666667,-82.35,CU,North America,CU
Curaçao,Willemstad,12.1,-68.916667,CW,North America,CW
Cyprus,Nicosia,35.1666666666667,33.366667,CY,Europe,CY
Czech Republic,Prague,50.0833333333333,14.466667,CZ,Europe,CZ
Denmark,Copenhagen,55.6666666666667,12.583333,DK,Europe,DK
Djibouti,Djibouti,11.5833333333333,43.15,DJ,Africa,DJ
Dominica,Roseau,15.3,-61.4,DM,North America,DM
Dominican Republic,Santo Domingo,18.4666666666667,-69.9,DO,North America,DO
Ecuador,Quito,-0.216666666666667,-78.5,EC,South America,EC
Egypt,Cairo,30.05,31.25,EG,Africa,EG
El Salvador,San Salvador,13.7,-89.2,SV,Central America,SV
Equatorial Guinea,Malabo,3.75,8.783333,GQ,Africa,GQ
Eritrea,Asmara,15.3333333333333,38.933333,ER,Africa,ER
Estonia,Tallinn,59.4333333333333,24.716667,EE,Europe,EE
Ethiopia,Addis Ababa,9.03333333333333,38.7,ET,Africa,ET
Falkland Islands,Stanley,-51.7,-57.85,FK,South America,FK
Faroe Islands,Torshavn,62,-6.766667,FO,Europe,FO
Fiji,Suva,-18.1333333333333,178.416667,FJ,Australia,FJ
Finland,Helsinki,60.1666666666667,24.933333,FI,Europe,FI
France,Paris,48.8666666666667,2.333333,FR,Europe,FR
French Polynesia,Papeete,-17.5333333333333,-149.566667,PF,Australia,PF
Gabon,Libreville,0.383333333333333,9.45,GA,Africa,GA
The Gambia,Banjul,13.45,-16.566667,GM,Africa,GM
Georgia,Tbilisi,41.6833333333333,44.833333,GE,Europe,GE
Germany,Berlin,52.5166666666667,13.4,DE,Europe,DE
Ghana,Accra,5.55,-0.216667,GH,Africa,GH
Gibraltar,Gibraltar,36.1333333333333,-5.35,GI,Europe,GI
Greece,Athens,37.9833333333333,23.733333,GR,Europe,GR
Greenland,Nuuk,64.1833333333333,-51.75,GL,Central America,GL
Grenada,Saint George's,12.05,-61.75,GD,North America,GD
Guam,Hagatna,13.4666666666667,144.733333,GU,Australia,GU
Guatemala,Guatemala City,14.6166666666667,-90.516667,GT,Central America,GT
Guernsey,Saint Peter Port,49.45,-2.533333,GG,Europe,GG
Guinea,Conakry,9.5,-13.7,GN,Africa,GN
Guinea-Bissau,Bissau,11.85,-15.583333,GW,Africa,GW
Guyana,Georgetown,6.8,-58.15,GY,South America,GY
Haiti,Port-au-Prince,18.5333333333333,-72.333333,HT,North America,HT
Vatican City,Vatican City,41.9,12.45,VA,Europe,VA
Honduras,Tegucigalpa,14.1,-87.216667,HN,Central America,HN
Hungary,Budapest,47.5,19.083333,HU,Europe,HU
Iceland,Reykjavik,64.15,-21.95,IS,Europe,IS
India,New Delhi,28.6,77.2,IN,Asia,IN
Indonesia,Jakarta,-6.16666666666667,106.816667,ID,Asia,ID
Iran,Tehran,35.7,51.416667,IR,Asia,IR
Iraq,Baghdad,33.3333333333333,44.4,IQ,Asia,IQ
Ireland,Dublin,53.3166666666667,-6.233333,IE,Europe,IE
Isle of Man,Douglas,54.15,-4.483333,IM,Europe,IM
Israel,Jerusalem,31.7666666666667,35.233333,IL,Asia,IL
Italy,Rome,41.9,12.483333,IT,Europe,IT
Jamaica,Kingston,18,-76.8,JM,North America,JM
Japan,Tokyo,35.6833333333333,139.75,JP,Asia,JP
Jersey,Saint Helier,49.1833333333333,-2.1,JE,Europe,JE
Jordan,Amman,31.95,35.933333,JO,Asia,JO
Kazakhstan,Astana,51.1666666666667,71.416667,KZ,Asia,KZ
Kenya,Nairobi,-1.28333333333333,36.816667,KE,Africa,KE
Kiribati,Tarawa,-0.883333333333333,169.533333,KI,Australia,KI
North Korea,Pyongyang,39.0166666666667,125.75,KP,Asia,KP
South Korea,Seoul,37.55,126.983333,KR,Asia,KR
Kosovo,Pristina,42.6666666666667,21.166667,KO,Europe,KO
Kuwait,Kuwait City,29.3666666666667,47.966667,KW,Asia,KW
Kyrgyzstan,Bishkek,42.8666666666667,74.6,KG,Asia,KG
Laos,Vientiane,17.9666666666667,102.6,LA,Asia,LA
Latvia,Riga,56.95,24.1,LV,Europe,LV
Lebanon,Beirut,33.8666666666667,35.5,LB,Asia,LB
Lesotho,Maseru,-29.3166666666667,27.483333,LS,Africa,LS
Liberia,Monrovia,6.3,-10.8,LR,Africa,LR
Libya,Tripoli,32.8833333333333,13.166667,LY,Africa,LY
Liechtenstein,Vaduz,47.1333333333333,9.516667,LI,Europe,LI
Lithuania,Vilnius,54.6833333333333,25.316667,LT,Europe,LT
Luxembourg,Luxembourg,49.6,6.116667,LU,Europe,LU
Macedonia,Skopje,42,21.433333,MK,Europe,MK
Madagascar,Antananarivo,-18.9166666666667,47.516667,MG,Africa,MG
Malawi,Lilongwe,-13.9666666666667,33.783333,MW,Africa,MW
Malaysia,Kuala Lumpur,3.16666666666667,101.7,MY,Asia,MY
Maldives,Male,4.16666666666667,73.5,MV,Asia,MV
Mali,Bamako,12.65,-8,ML,Africa,ML
Malta,Valletta,35.8833333333333,14.5,MT,Europe,MT
Marshall Islands,Majuro,7.1,171.383333,MH,Australia,MH
Mauritania,Nouakchott,18.0666666666667,-15.966667,MR,Africa,MR
Mauritius,Port Louis,-20.15,57.483333,MU,Africa,MU
Mexico,Mexico City,19.4333333333333,-99.133333,MX,Central America,MX
Federated States of Micronesia,Palikir,6.91666666666667,158.15,FM,Australia,FM
Moldova,Chisinau,47,28.85,MD,Europe,MD
Monaco,Monaco,43.7333333333333,7.416667,MC,Europe,MC
Mongolia,Ulaanbaatar,47.9166666666667,106.916667,MN,Asia,MN
Montenegro,Podgorica,42.4333333333333,19.266667,ME,Europe,ME
Montserrat,Plymouth,16.7,-62.216667,MS,North America,MS
Morocco,Rabat,34.0166666666667,-6.816667,MA,Africa,MA
Mozambique,Maputo,-25.95,32.583333,MZ,Africa,MZ
Namibia,Windhoek,-22.5666666666667,17.083333,NA,Africa,NA
Nepal,Kathmandu,27.7166666666667,85.316667,NP,Asia,NP
Netherlands,Amsterdam,52.35,4.916667,NL,Europe,NL
New Caledonia,Noumea,-22.2666666666667,166.45,NC,Australia,NC
New Zealand,Wellington,-41.3,174.783333,NZ,Australia,NZ
Nicaragua,Managua,12.1333333333333,-86.25,NI,Central America,NI
Niger,Niamey,13.5166666666667,2.116667,NE,Africa,NE
Nigeria,Abuja,9.08333333333333,7.533333,NG,Africa,NG
Niue,Alofi,-19.0166666666667,-169.916667,NU,Australia,NU
Norfolk Island,Kingston,-29.05,167.966667,NF,Australia,NF
Northern Mariana Islands,Saipan,15.2,145.75,MP,Australia,MP
Norway,Oslo,59.9166666666667,10.75,NO,Europe,NO
Oman,Muscat,23.6166666666667,58.583333,OM,Asia,OM
Pakistan,Islamabad,33.6833333333333,73.05,PK,Asia,PK
Palau,Melekeok,7.48333333333333,134.633333,PW,Australia,PW
Panama,Panama City,8.96666666666667,-79.533333,PA,Central America,PA
Papua New Guinea,Port Moresby,-9.45,147.183333,PG,Australia,PG
Paraguay,Asuncion,-25.2666666666667,-57.666667,PY,South America,PY
Peru,Lima,-12.05,-77.05,PE,South America,PE
Philippines,Manila,14.6,120.966667,PH,Asia,PH
Pitcairn Islands,Adamstown,-25.0666666666667,-130.083333,PN,Australia,PN
Poland,Warsaw,52.25,21,PL,Europe,PL
Portugal,Lisbon,38.7166666666667,-9.133333,PT,Europe,PT
Puerto Rico,San Juan,18.4666666666667,-66.116667,PR,North America,PR
Qatar,Doha,25.2833333333333,51.533333,QA,Asia,QA
Romania,Bucharest,44.4333333333333,26.1,RO,Europe,RO
Russia,Moscow,55.75,37.6,RU,Europe,RU
Rwanda,Kigali,-1.95,30.05,RW,Africa,RW
Saint Barthelemy,Gustavia,17.8833333333333,-62.85,BL,North America,BL
Saint Helena,Jamestown,-15.9333333333333,-5.716667,SH,Africa,SH
Saint Kitts and Nevis,Basseterre,17.3,-62.716667,KN,North America,KN
Saint Lucia,Castries,14,-61,LC,North America,LC
Saint Pierre and Miquelon,Saint-Pierre,46.7666666666667,-56.183333,PM,Central America,PM
Saint Vincent and the Grenadines,Kingstown,13.1333333333333,-61.216667,VC,Central America,VC
Samoa,Apia,-13.8166666666667,-171.766667,WS,Australia,WS
San Marino,San Marino,43.9333333333333,12.416667,SM,Europe,SM
Sao Tome and Principe,Sao Tome,0.333333333333333,6.733333,ST,Africa,ST
Saudi Arabia,Riyadh,24.65,46.7,SA,Asia,SA
Senegal,Dakar,14.7333333333333,-17.633333,SN,Africa,SN
Serbia,Belgrade,44.8333333333333,20.5,RS,Europe,RS
Seychelles,Victoria,-4.61666666666667,55.45,SC,Africa,SC
Sierra Leone,Freetown,8.48333333333333,-13.233333,SL,Africa,SL
Singapore,Singapore,1.28333333333333,103.85,SG,Asia,SG
Sint Maarten,Philipsburg,18.0166666666667,-63.033333,SX,North America,SX
Slovakia,Bratislava,48.15,17.116667,SK,Europe,SK
Slovenia,Ljubljana,46.05,14.516667,SI,Europe,SI
Solomon Islands,Honiara,-9.43333333333333,159.95,SB,Australia,SB
Somalia,Mogadishu,2.06666666666667,45.333333,SO,Africa,SO
South Africa,Pretoria,-25.7,28.216667,ZA,Africa,ZA
South Sudan,Juba,4.85,31.616667,SS,Africa,SS
Spain,Madrid,40.4,-3.683333,ES,Europe,ES
Sri Lanka,Colombo,6.91666666666667,79.833333,LK,Asia,LK
Sudan,Khartoum,15.6,32.533333,SD,Africa,SD
Suriname,Paramaribo,5.83333333333333,-55.166667,SR,South America,SR
Svalbard,Longyearbyen,78.2166666666667,15.633333,SJ,Europe,SJ
Swaziland,Mbabane,-26.3166666666667,31.133333,SZ,Africa,SZ
Sweden,Stockholm,59.3333333333333,18.05,SE,Europe,SE
Switzerland,Bern,46.9166666666667,7.466667,CH,Europe,CH
Syria,Damascus,33.5,36.3,SY,Asia,SY
Taiwan,Taipei,25.0333333333333,121.516667,TW,Asia,TW
Tajikistan,Dushanbe,38.55,68.766667,TJ,Asia,TJ
Tanzania,Dar es Salaam,-6.8,39.283333,TZ,Africa,TZ
Thailand,Bangkok,13.75,100.516667,TH,Asia,TH
Timor-Leste,Dili,-8.58333333333333,125.6,TL,Asia,TL
Togo,Lome,6.11666666666667,1.216667,TG,Africa,TG
Tonga,Nuku'alofa,-21.1333333333333,-175.2,TO,Australia,TO
Trinidad and Tobago,Port of Spain,10.65,-61.516667,TT,North America,TT
Tunisia,Tunis,36.8,10.183333,TN,Africa,TN
Turkey,Ankara,39.9333333333333,32.866667,TR,Europe,TR
Turkmenistan,Ashgabat,37.95,58.383333,TM,Asia,TM
Turks and Caicos Islands,Grand Turk,21.4666666666667,-71.133333,TC,North America,TC
Tuvalu,Funafuti,-8.51666666666667,179.216667,TV,Australia,TV
Uganda,Kampala,0.316666666666667,32.55,UG,Africa,UG
Ukraine,Kyiv,50.4333333333333,30.516667,UA,Europe,UA
United Arab Emirates,Abu Dhabi,24.4666666666667,54.366667,AE,Asia,AE
United Kingdom,London,51.5,-0.083333,GB,Europe,GB
United States,Washington DC,38.883333,-77,US,North America,US
Uruguay,Montevideo,-34.85,-56.166667,UY,South America,UY
Uzbekistan,Tashkent,41.3166666666667,69.25,UZ,Asia,UZ
Vanuatu,Port-Vila,-17.7333333333333,168.316667,VU,Australia,VU
Venezuela,Caracas,10.4833333333333,-66.866667,VE,South America,VE
Vietnam,Hanoi,21.0333333333333,105.85,VN,Asia,VN
US Virgin Islands,Charlotte Amalie,18.35,-64.933333,VI,North America,VI
Wallis and Futuna,Mata-Utu,-13.95,-171.933333,WF,Australia,WF
Yemen,Sanaa,15.35,44.2,YE,Asia,YE
Zambia,Lusaka,-15.4166666666667,28.283333,ZM,Africa,ZM
Zimbabwe,Harare,-17.8166666666667,31.033333,ZW,Africa,ZW
US Minor Outlying Islands,Washington DC,38.883333,-77,US,Australia,US
Antarctica,N/A,0,0,AQ,Antarctica,AQ
Northern Cyprus,North Nicosia,35.183333,33.366667,NULL,Europe,
Hong Kong,N/A,0,0,HK,Asia,HK
Heard Island and McDonald Islands,N/A,0,0,HM,Antarctica,HM
British Indian Ocean Territory,Diego Garcia,-7.3,72.4,IO,Africa,IO
Macau,N/A,0,0,MO,Asia,MO
